latitude,longitude,altitude(feet),ascent(feet),speed(mph),distance(feet),time(millisecond),datetime(utc),satellites,voltage(v),max_altitude(feet),max_ascent(feet),max_speed(mph),max_distance(feet),compass_heading(degrees), pitch(degrees), roll(degrees),isPhoto,isVideo,rc_elevator,rc_aileron,rc_throttle,rc_rudder,gimbal_heading(degrees),gimbal_pitch(degrees),battery_percent,voltageCell1,voltageCell2,voltageCell3,voltageCell4,voltageCell5,voltageCell6,battery_temperature(f),flycStateRaw,flycState
36.02165028,-78.00764839,228.7738853,0,0,0,0,2017/8/17 16:17,15,24.451,228.7738853,0,0,0,333.7,0.9,4,0,0,364,364,364,1684,339.8,0,75,4.076,4.076,4.073,4.075,4.078,4.073,101.03,6,GPS_Atti
36.02165018,-78.00764839,228.7738853,0,0,0.033342193,100,2017/8/17 16:17,15,24.451,228.7738853,0,0,0.033342193,333.7,0.9,4,0,0,364,364,364,1684,339.8,0,75,4.076,4.076,4.073,4.075,4.078,4.073,101.03,6,GPS_Atti
36.02165019,-78.00764837,228.7738853,0,0,0.032285893,200,2017/8/17 16:17,15,24.451,228.7738853,0,0,0.033342193,333.7,0.9,4,0,0,364,364,364,1684,339.8,0,75,4.076,4.076,4.073,4.075,4.078,4.073,101.03,6,GPS_Atti
36.02165009,-78.00764838,228.7738853,0,0,0.068367128,300,2017/8/17 16:17,15,24.451,228.7738853,0,0,0.068367128,333.7,0.9,4,0,0,364,364,364,1684,339.8,0,75,4.076,4.076,4.073,4.075,4.078,4.073,101.03,6,GPS_Atti
36.02165009,-78.00764838,228.7738853,0,0,0.068350068,400,2017/8/17 16:17,15,24.451,228.7738853,0,0,0.068367128,333.7,0.9,4,0,0,364,364,364,1684,339.7,0,75,4.076,4.076,4.073,4.075,4.078,4.073,101.03,6,GPS_Atti
36.02165005,-78.00764828,228.7738853,0,0,0.087447837,500,2017/8/17 16:17,14,24.45,228.7738853,0,0,0.087447837,333.7,0.9,4,0,0,364,364,364,1684,339.7,0,75,4.075,4.076,4.073,4.075,4.078,4.073,101.03,6,GPS_Atti
36.02165005,-78.00764829,228.7738853,0,0,0.088347116,600,2017/8/17 16:17,14,24.45,228.7738853,0,0,0.088347116,333.7,0.9,4,0,0,364,364,364,1684,339.8,0,75,4.075,4.076,4.073,4.075,4.078,4.073,101.03,6,GPS_Atti
36.02164994,-78.00764829,228.7738853,0,0,0.12652297,700,2017/8/17 16:17,14,24.45,228.7738853,0,0,0.12652297,333.7,0.9,4,0,0,364,364,364,1684,339.8,0,75,4.075,4.076,4.073,4.075,4.078,4.073,101.03,6,GPS_Atti
36.02164995,-78.00764828,228.7738853,0,0,0.122378613,800,2017/8/17 16:17,14,24.45,228.7738853,0,0,0.12652297,333.8,0.9,4,0,0,364,364,364,1684,339.8,0,75,4.075,4.076,4.073,4.075,4.078,4.073,101.03,6,GPS_Atti
36.02164995,-78.00764827,228.7738853,0,0,0.123610896,900,2017/8/17 16:17,14,24.45,228.7738853,0,0,0.12652297,333.8,0.9,4,0,0,364,364,364,1684,339.8,0,75,4.075,4.076,4.073,4.075,4.078,4.073,101.03,6,GPS_Atti
36.02164995,-78.00764826,228.7738853,0,0,0.125607287,1000,2017/8/17 16:17,14,24.45,228.7738853,0,0,0.12652297,333.8,0.9,4,0,0,364,364,364,1684,339.8,0,75,4.075,4.076,4.073,4.075,4.078,4.073,101.03,6,GPS_Atti
36.02164984,-78.00764825,228.7738853,0,0,0.162493444,1100,2017/8/17 16:17,14,24.45,228.7738853,0,0,0.162493444,333.8,0.9,4,0,0,364,364,364,1684,339.8,0,75,4.075,4.076,4.073,4.075,4.078,4.073,101.03,6,GPS_Atti
36.02164983,-78.00764825,228.7738853,0,0,0.167940622,1200,2017/8/17 16:17,14,24.45,228.7738853,0,0,0.167940622,333.8,0.9,4,0,0,364,364,364,1684,339.9,0,75,4.075,4.076,4.073,4.075,4.078,4.073,101.03,6,GPS_Atti
36.02164984,-78.00764814,228.7738853,0,0,0.176168969,1300,2017/8/17 16:17,14,24.45,228.7738853,0,0,0.176168969,333.8,0.8,4.1,0,0,364,364,364,1684,339.8,0,75,4.075,4.076,4.073,4.075,4.078,4.073,101.03,6,GPS_Atti
36.02164984,-78.00764813,228.7738853,0,0,0.176007552,1400,2017/8/17 16:17,14,24.45,228.7738853,0,0,0.176168969,333.8,0.8,4.1,0,0,364,364,364,1684,339.8,0,75,4.075,4.076,4.073,4.075,4.078,4.073,101.03,6,GPS_Atti
36.02164984,-78.00764811,228.7738853,0,0,0.17729889,1500,2017/8/17 16:17,14,24.434,228.7738853,0,0,0.17729889,333.8,0.8,4.1,0,0,364,364,364,1684,339.9,0,75,4.075,4.076,4.073,4.075,4.078,4.073,101.03,6,GPS_Atti
36.02164985,-78.00764812,228.7738853,0,0,0.174977368,1600,2017/8/17 16:17,14,24.434,228.7738853,0,0,0.17729889,333.8,0.9,4.1,0,0,364,364,364,1684,339.9,0,75,4.075,4.076,4.073,4.075,4.078,4.073,101.03,6,GPS_Atti
36.02164985,-78.00764812,228.7738853,0,0,0.172655517,1700,2017/8/17 16:17,15,24.434,228.7738853,0,0,0.17729889,333.8,0.8,4.1,0,0,364,364,364,1684,339.9,0,75,4.075,4.076,4.073,4.075,4.078,4.073,101.03,6,GPS_Atti
36.02164989,-78.00764815,228.7738853,0,0,0.156040687,1800,2017/8/17 16:17,15,24.434,228.7738853,0,0,0.17729889,333.8,0.8,4.1,0,0,364,364,364,1684,339.9,0,75,4.075,4.076,4.073,4.075,4.078,4.073,101.03,6,GPS_Atti
36.02164989,-78.00764816,228.7738853,0,0,0.157389441,1900,2017/8/17 16:17,15,24.434,228.7738853,0,0,0.17729889,333.8,0.9,4.1,0,0,364,364,364,1684,339.9,0,75,4.075,4.076,4.073,4.075,4.078,4.073,101.03,6,GPS_Atti
36.02164989,-78.00764816,228.7738853,0,0,0.156356304,2000,2017/8/17 16:17,15,24.434,228.7738853,0,0,0.17729889,333.7,0.9,4.1,0,0,364,364,364,1684,340.1,0,75,4.073,4.074,4.069,4.071,4.076,4.07,101.03,10,Assisted_Takeoff
36.02164987,-78.00764819,228.7738853,0,0,0.160520674,2100,2017/8/17 16:17,15,24.434,228.7738853,0,0,0.17729889,333.7,1.3,3.7,0,0,364,364,364,1684,340.2,0,75,4.073,4.074,4.069,4.071,4.076,4.07,101.03,10,Assisted_Takeoff
36.02164984,-78.00764821,228.7738853,0,0,0.166161751,2200,2017/8/17 16:17,15,24.434,228.7738853,0,0,0.17729889,333.7,1.7,3.4,0,0,364,364,364,1684,340.2,0,75,4.073,4.074,4.069,4.071,4.076,4.07,101.03,10,Assisted_Takeoff
36.02164987,-78.00764822,228.7738853,0,0,0.156762472,2300,2017/8/17 16:17,15,24.434,228.7738853,0,0,0.17729889,333.8,1.4,3.5,0,0,364,364,428,1668,340.3,0,75,4.073,4.074,4.069,4.071,4.076,4.07,101.03,10,Assisted_Takeoff
36.02164986,-78.00764823,228.7738853,0,0,0.159496724,2400,2017/8/17 16:17,15,24.434,228.7738853,0,0,0.17729889,333.8,1.7,3.4,0,0,1024,1024,996,1071,339.5,0,75,4.073,4.074,4.069,4.071,4.076,4.07,101.03,10,Assisted_Takeoff
36.02164981,-78.00764833,228.7738853,0,0,0.170033142,2500,2017/8/17 16:17,15,24.434,228.7738853,0,0,0.17729889,333.8,1.5,3.5,0,0,1024,1024,1024,1024,337.3,0,75,4.073,4.074,4.069,4.071,4.076,4.07,101.03,10,Assisted_Takeoff
36.0216498,-78.00764832,228.7738853,0,0,0.173490819,2600,2017/8/17 16:17,15,24.434,228.7738853,0,0,0.17729889,333.8,1.4,3.6,0,0,1024,1024,1024,1024,336.3,0,75,4.073,4.074,4.069,4.071,4.076,4.07,101.03,10,Assisted_Takeoff
36.02164981,-78.00764819,228.7738853,0,0,0.180044625,2700,2017/8/17 16:17,15,24.434,228.7738853,0,0,0.180044625,333.7,1.2,3.8,0,0,1024,1024,1024,1024,335.7,0,75,4.073,4.074,4.069,4.071,4.076,4.07,101.03,10,Assisted_Takeoff
36.02164982,-78.00764818,228.7738853,0,0,0.176888457,2800,2017/8/17 16:17,15,24.434,228.7738853,0,0,0.180044625,333.7,0.8,4.1,0,0,1024,1024,1182,1024,335.4,0,75,4.073,4.074,4.069,4.071,4.076,4.07,101.03,10,Assisted_Takeoff
36.02164991,-78.00764818,228.7738853,0,0,0.147449808,2900,2017/8/17 16:17,15,24.434,228.7738853,0,0,0.180044625,333.7,1,4,0,0,1024,1024,1383,1024,335.1,0,75,4.073,4.074,4.069,4.071,4.076,4.07,101.03,10,Assisted_Takeoff
36.0216499,-78.00764814,228.7738853,0,0,0.156823496,3000,2017/8/17 16:17,15,24.382,228.7738853,0,0,0.180044625,333.7,0.9,4.1,0,0,1024,1024,1442,1024,335,0,75,4.066,4.053,4.03,4.021,4.064,4.066,101.03,10,Assisted_Takeoff
36.02164987,-78.00764815,228.7738853,0,0,0.164045609,3100,2017/8/17 16:17,15,24.382,228.7738853,0,0,0.180044625,333.8,0.9,4.1,0,0,1024,1024,1442,1024,334.8,0,75,4.066,4.053,4.03,4.021,4.064,4.066,101.03,10,Assisted_Takeoff
36.02164988,-78.00764816,228.7738853,0,0,0.159066278,3200,2017/8/17 16:17,15,24.382,228.7738853,0,0,0.180044625,333.7,0.7,4.2,0,0,1024,1024,1417,1024,334.7,0,75,4.066,4.053,4.03,4.021,4.064,4.066,101.03,10,Assisted_Takeoff
36.02164985,-78.00764817,228.7738853,0,0,0.16657973,3300,2017/8/17 16:17,15,24.382,228.7738853,0,0,0.180044625,333.6,0.7,4.3,0,0,1024,1024,1417,1024,334.6,0,75,4.066,4.053,4.03,4.021,4.064,4.066,101.03,10,Assisted_Takeoff
36.02164986,-78.00764817,228.7738853,0,0,0.163069231,3400,2017/8/17 16:17,15,24.382,228.7738853,0,0,0.180044625,333.5,0.7,4.4,0,0,1024,1024,1416,1024,334.5,0,75,4.066,4.053,4.03,4.021,4.064,4.066,101.03,10,Assisted_Takeoff
36.02164997,-78.00764805,228.7738853,0,0,0.149540031,3500,2017/8/17 16:17,15,24.382,228.7738853,0,0,0.180044625,333.3,0.5,4.3,0,0,1024,1024,1409,1024,334.5,0,75,4.066,4.053,4.03,4.021,4.064,4.066,101.03,10,Assisted_Takeoff
36.02164998,-78.00764795,228.7738853,0,0.223694,0.169069887,3600,2017/8/17 16:17,15,24.382,228.7738853,0,0.223694,0.180044625,333,-0.4,3.8,0,0,1024,1024,1406,1024,334.3,0,75,4.066,4.053,4.03,4.021,4.064,4.066,101.03,10,Assisted_Takeoff
36.02165004,-78.00764778,228.7738853,0,0.223694,0.197224416,3700,2017/8/17 16:17,15,24.382,228.7738853,0,0.223694,0.197224416,332.5,-2.2,2.6,0,0,1024,1024,1387,1024,334.2,0,75,4.066,4.053,4.03,4.021,4.064,4.066,101.03,6,GPS_Atti
36.02165014,-78.00764759,228.7738853,0,0.50107456,0.239647974,3800,2017/8/17 16:17,15,24.382,228.7738853,0,0.50107456,0.239647974,332.3,-3.3,0.9,0,0,1024,1024,1386,1024,334.1,0,75,4.066,4.053,4.03,4.021,4.064,4.066,101.03,6,GPS_Atti
36.02165038,-78.00764707,229.1019693,0.328084,0.50107456,0.389730984,3900,2017/8/17 16:17,15,24.382,229.1019693,0.328084,0.50107456,0.389730984,332.2,-2.9,-0.1,0,0,1024,1024,1402,1024,334,0,75,4.066,4.053,4.03,4.021,4.064,4.066,101.03,6,GPS_Atti
36.02165055,-78.00764685,229.1019693,0.328084,0.31540854,0.464829411,4000,2017/8/17 16:17,15,24.281,229.1019693,0.328084,0.50107456,0.464829411,332.2,-2.1,-1,0,0,1024,1024,1445,1024,334,0,75,4.06,4.053,4.054,4.054,4.062,4.053,101.03,6,GPS_Atti
36.02165078,-78.00764671,229.1019693,0.328084,0.50107456,0.529813009,4100,2017/8/17 16:17,15,24.281,229.1019693,0.328084,0.50107456,0.529813009,332.3,-1.6,-1.4,0,0,1024,1024,1461,1024,333.9,0,75,4.06,4.053,4.054,4.054,4.062,4.053,101.03,6,GPS_Atti
36.02165099,-78.00764657,229.4300533,0.656168,0.50107456,0.595442932,4200,2017/8/17 16:17,15,24.281,229.4300533,0.656168,0.50107456,0.595442932,332.4,-1.1,-1.5,0,0,1024,1024,1461,1024,333.8,0,75,4.06,4.053,4.054,4.054,4.062,4.053,101.03,6,GPS_Atti
36.02165111,-78.0076466,229.7581373,0.984252,0.223694,0.607706712,4300,2017/8/17 16:17,14,24.281,229.7581373,0.984252,0.50107456,0.607706712,332.5,-0.7,-2,0,0,1024,1024,1460,1024,333.8,0,75,4.06,4.053,4.054,4.054,4.062,4.053,101.03,6,GPS_Atti
36.02165127,-78.00764658,230.4143053,1.64042,0.223694,0.643641753,4400,2017/8/17 16:17,14,24.281,230.4143053,1.64042,0.50107456,0.643641753,332.7,-0.1,-2.3,0,0,1024,1024,1462,1024,333.8,0,75,4.06,4.053,4.054,4.054,4.062,4.053,101.03,6,GPS_Atti
36.02165146,-78.00764643,230.7423893,1.968504,0.223694,0.720898973,4500,2017/8/17 16:17,14,24.281,230.7423893,1.968504,0.50107456,0.720898973,332.9,0.2,-2.1,0,0,1024,1024,1463,1024,333.7,0,75,4.06,4.053,4.054,4.054,4.062,4.053,101.03,6,GPS_Atti
36.02165154,-78.00764658,231.3985573,2.624672,0.223694,0.707463933,4600,2017/8/17 16:17,14,24.281,231.3985573,2.624672,0.50107456,0.720898973,333,0.4,-1.9,0,0,1024,1024,1463,1024,333.7,0,75,4.06,4.053,4.054,4.054,4.062,4.053,101.03,6,GPS_Atti
36.0216515,-78.00764674,232.0547253,3.28084,0,0.659028892,4700,2017/8/17 16:17,14,24.281,232.0547253,3.28084,0.50107456,0.720898973,333,0.4,-1.6,0,0,1024,1024,1462,1024,333.7,0,75,4.06,4.053,4.054,4.054,4.062,4.053,101.03,6,GPS_Atti
36.02165153,-78.00764683,232.7108933,3.937008,0,0.647467212,4800,2017/8/17 16:17,14,24.281,232.7108933,3.937008,0.50107456,0.720898973,333,0.6,-1,0,0,1024,1024,1463,1024,333.7,0,75,4.06,4.053,4.054,4.054,4.062,4.053,101.03,6,GPS_Atti
36.02165143,-78.0076468,233.3670613,4.593176,0,0.630180466,4900,2017/8/17 16:17,15,24.281,233.3670613,4.593176,0.50107456,0.720898973,333,1,-0.4,0,0,1024,1024,1464,1024,333.7,0,75,4.06,4.053,4.054,4.054,4.062,4.053,101.03,6,GPS_Atti
36.02165136,-78.00764679,234.0232293,5.249344,0,0.615301857,5000,2017/8/17 16:17,15,23.738,234.0232293,5.249344,0.50107456,0.720898973,332.9,1,-0.3,0,0,1024,1024,1472,1024,333.6,0,75,3.945,3.965,3.929,3.932,3.94,3.949,101.03,6,GPS_Atti
36.02165138,-78.00764679,234.6793973,5.905512,0.223694,0.621115505,5100,2017/8/17 16:17,15,23.738,234.6793973,5.905512,0.50107456,0.720898973,332.8,0.7,-0.5,0,0,1024,1024,1473,1024,333.6,0,75,3.945,3.965,3.929,3.932,3.94,3.949,101.03,6,GPS_Atti
36.02165115,-78.00764696,235.6636493,6.889764,0.223694,0.528015109,5200,2017/8/17 16:17,15,23.738,235.6636493,6.889764,0.50107456,0.720898973,332.7,0.1,-0.6,0,0,1024,1024,1468,1024,333.6,0,75,3.945,3.965,3.929,3.932,3.94,3.949,101.03,6,GPS_Atti
36.02165102,-78.00764675,236.3198173,7.545932,0.223694,0.554183089,5300,2017/8/17 16:17,15,23.738,236.3198173,7.545932,0.50107456,0.720898973,332.7,-0.3,-0.5,0,0,1024,1024,1467,1024,333.6,0,75,3.945,3.965,3.929,3.932,3.94,3.949,101.03,6,GPS_Atti
36.02165086,-78.00764685,237.3040693,8.530184,0.223694,0.50134516,5400,2017/8/17 16:17,15,23.738,237.3040693,8.530184,0.50107456,0.720898973,332.6,-0.8,-0.1,0,0,1024,1024,1463,1024,333.6,0,75,3.945,3.965,3.929,3.932,3.94,3.949,101.03,6,GPS_Atti
36.02165075,-78.00764693,237.9602373,9.186352,0.31540854,0.464678493,5500,2017/8/17 16:17,15,23.738,237.9602373,9.186352,0.50107456,0.720898973,332.6,-1.4,0.2,0,0,1024,1024,1459,1024,333.6,0,75,3.945,3.965,3.929,3.932,3.94,3.949,101.03,6,GPS_Atti
36.02165062,-78.00764705,238.9444893,10.170604,0.31540854,0.415764449,5600,2017/8/17 16:17,15,23.738,238.9444893,10.170604,0.50107456,0.720898973,332.6,-1.5,0.6,0,0,1024,1024,1460,1024,333.6,0,75,3.945,3.965,3.929,3.932,3.94,3.949,101.03,6,GPS_Atti
36.02165064,-78.00764691,239.9287413,11.154856,0.223694,0.4562697,5700,2017/8/17 16:17,16,23.738,239.9287413,11.154856,0.50107456,0.720898973,332.7,-1.6,0.8,0,0,1024,1024,1414,1024,333.6,0,75,3.945,3.965,3.929,3.932,3.94,3.949,101.03,6,GPS_Atti
36.0216505,-78.00764703,240.9129933,12.139108,0,0.410147651,5800,2017/8/17 16:17,16,23.738,240.9129933,12.139108,0.50107456,0.720898973,332.9,-1.8,0.6,0,0,1024,1024,1351,1024,333.6,0,75,3.945,3.965,3.929,3.932,3.94,3.949,101.03,6,GPS_Atti
36.02165068,-78.00764676,241.8972453,13.12336,0,0.502024294,5900,2017/8/17 16:17,16,23.738,241.8972453,13.12336,0.50107456,0.720898973,333.2,-1.6,0.3,0,0,1024,1024,1371,1024,333.6,0,75,3.945,3.965,3.929,3.932,3.94,3.949,101.03,6,GPS_Atti
36.02165067,-78.00764675,242.5534133,13.779528,0,0.504527575,6000,2017/8/17 16:17,16,23.154,242.5534133,13.779528,0.50107456,0.720898973,333.3,-1,-0.3,0,0,1024,1024,1388,1024,333.6,0,75,3.857,3.864,3.856,3.861,3.872,3.857,101.03,6,GPS_Atti
36.02165118,-78.0076464,243.5376653,14.76378,0,0.672188342,6100,2017/8/17 16:17,17,23.154,243.5376653,14.76378,0.50107456,0.720898973,333.3,-0.8,-0.9,0,0,1024,1024,1380,1024,333.6,0,74,3.857,3.864,3.856,3.861,3.872,3.857,101.03,6,GPS_Atti
36.02165125,-78.00764634,244.1938333,15.419948,0,0.702227713,6200,2017/8/17 16:17,17,23.154,244.1938333,15.419948,0.50107456,0.720898973,333.3,-0.6,-1.6,0,0,1024,1024,1368,1024,333.6,0,74,3.857,3.864,3.856,3.861,3.872,3.857,101.03,6,GPS_Atti
36.0216516,-78.00764586,244.8500013,16.076116,0.223694,0.890790711,6300,2017/8/17 16:17,17,23.154,244.8500013,16.076116,0.50107456,0.890790711,333.2,-0.1,-2.3,0,0,1024,1024,1375,1024,333.6,0,74,3.857,3.864,3.856,3.861,3.872,3.857,101.03,6,GPS_Atti
36.0216518,-78.00764556,245.5061693,16.732284,0.223694,1.003330085,6400,2017/8/17 16:17,17,23.154,245.5061693,16.732284,0.50107456,1.003330085,333.1,0.3,-3.1,0,0,1024,1024,1376,1024,333.6,0,74,3.857,3.864,3.856,3.861,3.872,3.857,101.03,6,GPS_Atti
36.02165197,-78.00764545,246.1623373,17.388452,0.223694,1.064491504,6500,2017/8/17 16:17,17,23.154,246.1623373,17.388452,0.50107456,1.064491504,333,0.5,-4,0,0,1024,1024,1368,1024,333.6,0,74,3.857,3.864,3.856,3.861,3.872,3.857,101.03,6,GPS_Atti
36.02165204,-78.00764531,246.8185053,18.04462,0.223694,1.114731007,6600,2017/8/17 16:17,17,23.154,246.8185053,18.04462,0.50107456,1.114731007,332.9,0.4,-4.4,0,0,1024,1024,1368,1024,333.6,0,74,3.857,3.864,3.856,3.861,3.872,3.857,101.03,6,GPS_Atti
36.02165234,-78.00764514,247.4746733,18.700788,0,1.219281535,6700,2017/8/17 16:17,17,23.154,247.4746733,18.700788,0.50107456,1.219281535,332.9,0.4,-4.7,0,0,1024,1024,1369,1024,333.6,0,74,3.857,3.864,3.856,3.861,3.872,3.857,101.03,6,GPS_Atti
36.0216524,-78.00764506,248.1308413,19.356956,0,1.251433767,6800,2017/8/17 16:17,17,23.154,248.1308413,19.356956,0.50107456,1.251433767,332.9,0.6,-5,0,0,1024,1024,1373,1024,333.6,0,74,3.857,3.864,3.856,3.861,3.872,3.857,101.03,6,GPS_Atti
36.02165241,-78.00764514,248.7870093,20.013124,0,1.236177861,6900,2017/8/17 16:17,17,23.154,248.7870093,20.013124,0.50107456,1.251433767,333,1,-5.6,0,0,1024,1024,1383,1024,333.6,0,74,3.857,3.864,3.856,3.861,3.872,3.857,101.03,6,GPS_Atti
36.02165248,-78.00764514,249.4431773,20.669292,0,1.25019689,7000,2017/8/17 16:17,17,23.408,249.4431773,20.669292,0.50107456,1.251433767,333.2,1.1,-5.7,0,0,1024,1024,1395,1024,333.6,0,74,3.857,3.864,3.856,3.861,3.872,3.857,101.03,6,GPS_Atti
36.02165257,-78.00764527,250.0993453,21.32546,0,1.24402563,7100,2017/8/17 16:17,17,23.408,250.0993453,21.32546,0.50107456,1.251433767,333.2,0.5,-4.7,0,0,1024,1024,1403,1024,333.6,0,74,3.857,3.864,3.856,3.861,3.872,3.857,101.03,6,GPS_Atti
36.02165245,-78.00764547,250.7555133,21.981628,0.31540854,1.171827465,7200,2017/8/17 16:17,17,23.408,250.7555133,21.981628,0.50107456,1.251433767,333.2,0.1,-3.7,0,0,1024,1024,1403,1024,333.6,0,74,3.857,3.864,3.856,3.861,3.872,3.857,101.03,6,GPS_Atti
36.02165256,-78.00764571,251.4116813,22.637796,0.50107456,1.148595837,7300,2017/8/17 16:17,17,23.408,251.4116813,22.637796,0.50107456,1.251433767,333,-0.2,-2.9,0,0,1024,1024,1404,1024,333.6,0,74,3.857,3.864,3.856,3.861,3.872,3.857,101.03,6,GPS_Atti
36.02165249,-78.00764589,251.7397653,22.96588,0.50107456,1.09494098,7400,2017/8/17 16:17,17,23.408,251.7397653,22.96588,0.50107456,1.251433767,332.9,-0.2,-2.1,0,0,1024,1024,1410,1024,333.6,0,74,3.857,3.864,3.856,3.861,3.872,3.857,101.03,6,GPS_Atti
36.02165245,-78.0076464,252.3959333,23.622048,0.50107456,0.986587958,7500,2017/8/17 16:17,17,23.408,252.3959333,23.622048,0.50107456,1.251433767,332.7,0,-1.3,0,0,1024,1024,1409,1024,333.6,0,74,3.908,3.884,3.916,3.902,3.918,3.886,101.03,6,GPS_Atti
36.02165235,-78.00764674,253.0521013,24.278216,0.50107456,0.900771026,7600,2017/8/17 16:17,17,23.408,253.0521013,24.278216,0.50107456,1.251433767,332.5,0.2,-0.3,0,0,1024,1024,1411,1024,333.6,0,74,3.908,3.884,3.916,3.902,3.918,3.886,101.03,6,GPS_Atti
36.02165247,-78.00764716,253.7082693,24.934384,0.447388,0.879183099,7700,2017/8/17 16:17,17,23.408,253.7082693,24.934384,0.50107456,1.251433767,332.5,0.4,0.4,0,0,1024,1024,1413,1024,333.6,0,74,3.908,3.884,3.916,3.902,3.918,3.886,101.03,6,GPS_Atti
36.02165241,-78.00764747,254.3644373,25.590552,0.447388,0.823776273,7800,2017/8/17 16:17,17,23.408,254.3644373,25.590552,0.50107456,1.251433767,332.5,0.5,0.5,0,0,1024,1024,1417,1024,333.6,0,74,3.908,3.884,3.916,3.902,3.918,3.886,101.03,6,GPS_Atti
36.02165244,-78.00764791,255.0206053,26.24672,0.447388,0.803146351,7900,2017/8/17 16:17,17,23.408,255.0206053,26.24672,0.50107456,1.251433767,332.6,1.2,0.8,0,0,1024,1024,1423,1024,333.6,0,74,3.908,3.884,3.916,3.902,3.918,3.886,101.03,6,GPS_Atti
36.02165242,-78.0076482,255.6767733,26.902888,0.447388,0.782933096,8000,2017/8/17 16:17,17,23.408,255.6767733,26.902888,0.50107456,1.251433767,332.7,1.9,1,0,0,1024,1024,1425,1024,333.6,0,74,3.908,3.884,3.916,3.902,3.918,3.886,101.03,6,GPS_Atti
36.02165243,-78.00764846,256.3329413,27.559056,0.447388,0.786332046,8100,2017/8/17 16:17,17,23.408,256.3329413,27.559056,0.50107456,1.251433767,332.7,1.8,0.9,0,0,1024,1024,1424,1024,333.6,0,74,3.908,3.884,3.916,3.902,3.918,3.886,101.03,6,GPS_Atti
36.0216524,-78.00764868,256.9891093,28.215224,0.223694,0.7784974,8200,2017/8/17 16:17,17,23.408,256.9891093,28.215224,0.50107456,1.251433767,332.7,1.5,1.1,0,0,1024,1024,1424,1024,333.6,0,74,3.908,3.884,3.916,3.902,3.918,3.886,101.03,6,GPS_Atti
36.02165238,-78.00764883,257.6452773,28.871392,0.223694,0.780584014,8300,2017/8/17 16:17,17,23.408,257.6452773,28.871392,0.50107456,1.251433767,332.8,1.5,1.5,0,0,1024,1024,1424,1024,333.6,0,74,3.908,3.884,3.916,3.902,3.918,3.886,101.03,6,GPS_Atti
36.02165238,-78.00764898,258.6295293,29.855644,0,0.787372072,8400,2017/8/17 16:17,17,23.408,258.6295293,29.855644,0.50107456,1.251433767,332.7,1.8,1.3,0,0,1024,1024,1424,1024,333.6,0,74,3.908,3.884,3.916,3.902,3.918,3.886,101.03,6,GPS_Atti
36.02165252,-78.00764901,259.2856973,30.511812,0,0.839429161,8500,2017/8/17 16:17,17,23.296,259.2856973,30.511812,0.50107456,1.251433767,332.6,2.1,0.8,0,0,1024,1024,1424,1024,333.6,0,74,3.883,3.876,3.882,3.887,3.89,3.859,101.03,6,GPS_Atti
36.02165254,-78.00764909,259.9418653,31.16798,0,0.85266735,8600,2017/8/17 16:17,17,23.296,259.9418653,31.16798,0.50107456,1.251433767,332.7,2.1,0,0,0,1024,1024,1424,1024,333.6,0,74,3.883,3.876,3.882,3.887,3.89,3.859,101.03,6,GPS_Atti
36.02165278,-78.00764889,260.5980333,31.824148,0,0.923992812,8700,2017/8/17 16:17,17,23.296,260.5980333,31.824148,0.50107456,1.251433767,332.9,2.5,-0.6,0,0,1024,1024,1419,1024,333.6,0,74,3.883,3.876,3.882,3.887,3.89,3.859,101.03,6,GPS_Atti
36.02165282,-78.00764878,261.2542013,32.480316,0,0.935761185,8800,2017/8/17 16:17,17,23.296,261.2542013,32.480316,0.50107456,1.251433767,333.1,3.1,-1.6,0,0,1024,1024,1415,1024,333.6,0,74,3.883,3.876,3.882,3.887,3.89,3.859,101.03,6,GPS_Atti
36.02165291,-78.00764857,262.2384533,33.464568,0,0.963615516,8900,2017/8/17 16:17,17,23.296,262.2384533,33.464568,0.50107456,1.251433767,333.4,3.3,-2.3,0,0,1024,1024,1417,1024,333.6,0,74,3.883,3.876,3.882,3.887,3.89,3.859,101.03,6,GPS_Atti
36.02165288,-78.00764851,262.8946213,34.120736,0,0.950570897,9000,2017/8/17 16:17,17,23.296,262.8946213,34.120736,0.50107456,1.251433767,333.6,3.1,-2.3,0,0,1024,1024,1417,1024,333.6,0,74,3.883,3.876,3.882,3.887,3.89,3.859,101.03,6,GPS_Atti
36.02165303,-78.00764841,263.5507893,34.776904,0,1.003927197,9100,2017/8/17 16:17,17,23.296,263.5507893,34.776904,0.50107456,1.251433767,333.5,2.7,-2.3,0,0,1024,1024,1414,1024,333.6,0,74,3.883,3.876,3.882,3.887,3.89,3.859,101.03,6,GPS_Atti
36.02165291,-78.00764843,264.2069573,35.433072,0,0.960574178,9200,2017/8/17 16:17,17,23.296,264.2069573,35.433072,0.50107456,1.251433767,333.4,2.2,-2,0,0,1024,1024,1405,1024,333.6,0,74,3.883,3.876,3.882,3.887,3.89,3.859,101.03,6,GPS_Atti
36.02165296,-78.00764826,264.8631253,36.08924,0,0.980987564,9300,2017/8/17 16:17,17,23.296,264.8631253,36.08924,0.50107456,1.251433767,333.3,1.7,-1.8,0,0,1024,1024,1407,1024,333.6,0,74,3.883,3.876,3.882,3.887,3.89,3.859,101.03,6,GPS_Atti
36.02165295,-78.00764827,265.8473773,37.073492,0,0.975469191,9400,2017/8/17 16:17,17,23.296,265.8473773,37.073492,0.50107456,1.251433767,333.2,1.5,-1.8,0,0,1024,1024,1400,1024,333.6,0,74,3.883,3.876,3.882,3.887,3.89,3.859,101.03,6,GPS_Atti
36.02165304,-78.00764815,266.5035453,37.72966,0,1.00948494,9500,2017/8/17 16:17,17,23.199,266.5035453,37.72966,0.50107456,1.251433767,333.2,1.7,-1.6,0,0,1024,1024,1397,1024,333.6,0,74,3.876,3.871,3.862,3.85,3.872,3.861,101.03,6,GPS_Atti
36.02165305,-78.00764817,267.1597133,38.385828,0,1.012772342,9600,2017/8/17 16:17,17,23.199,267.1597133,38.385828,0.50107456,1.251433767,333.2,1.8,-2,0,0,1024,1024,1387,1024,333.6,0,74,3.876,3.871,3.862,3.85,3.872,3.861,101.03,6,GPS_Atti
36.02165304,-78.00764801,267.8158813,39.041996,0,1.013264468,9700,2017/8/17 16:17,17,23.199,267.8158813,39.041996,0.50107456,1.251433767,333.2,2.1,-2.5,0,0,1024,1024,1337,1024,333.6,0,74,3.876,3.871,3.862,3.85,3.872,3.861,101.03,6,GPS_Atti
36.02165307,-78.00764802,268.8001333,40.026248,0,1.026184416,9800,2017/8/17 16:17,17,23.199,268.8001333,40.026248,0.50107456,1.251433767,333.2,2.4,-2.4,0,0,1024,1024,1332,1024,333.6,0,74,3.876,3.871,3.862,3.85,3.872,3.861,101.03,6,GPS_Atti
36.02165312,-78.00764802,269.4563013,40.682416,0,1.043054495,9900,2017/8/17 16:17,17,23.199,269.4563013,40.682416,0.50107456,1.251433767,333,2.8,-2,0,0,1024,1024,1315,1024,333.6,0,74,3.876,3.871,3.862,3.85,3.872,3.861,101.03,6,GPS_Atti
36.02165306,-78.0076481,270.1124693,41.338584,0,1.0183104,10000,2017/8/17 16:17,17,23.199,270.1124693,41.338584,0.50107456,1.251433767,332.8,3.2,-1.6,0,0,1024,1024,1315,1024,333.6,0,74,3.876,3.871,3.862,3.85,3.872,3.861,101.03,6,GPS_Atti
36.02165301,-78.00764809,270.4405533,41.666668,0,1.001384546,10100,2017/8/17 16:17,17,23.199,270.4405533,41.666668,0.50107456,1.251433767,332.6,2.9,-1.3,0,0,1024,1024,1329,1024,333.6,0,74,3.876,3.871,3.862,3.85,3.872,3.861,101.03,6,GPS_Atti
36.02165297,-78.00764809,271.0967213,42.322836,0.223694,0.986020373,10200,2017/8/17 16:17,17,23.199,271.0967213,42.322836,0.50107456,1.251433767,332.5,2.7,-1.3,0,0,1024,1024,1343,1024,333.6,0,74,3.876,3.871,3.862,3.85,3.872,3.861,101.03,6,GPS_Atti
36.02165295,-78.00764809,271.4248053,42.65092,0,0.978982971,10300,2017/8/17 16:17,17,23.199,271.4248053,42.65092,0.50107456,1.251433767,332.4,2.3,-1.5,0,0,1024,1024,1336,1024,333.6,0,74,3.876,3.871,3.862,3.85,3.872,3.861,101.03,6,GPS_Atti
36.02165295,-78.00764809,271.7528893,42.979004,0,0.978175884,10400,2017/8/17 16:17,17,23.199,271.7528893,42.979004,0.50107456,1.251433767,332.4,1.9,-1.6,0,0,1024,1024,1332,1024,333.6,0,74,3.876,3.871,3.862,3.85,3.872,3.861,101.03,6,GPS_Atti
36.02165294,-78.00764799,272.4090573,43.635172,0,0.978461317,10500,2017/8/17 16:17,17,23.147,272.4090573,43.635172,0.50107456,1.251433767,332.5,1.6,-1.8,0,0,1024,1024,1353,1024,333.6,0,74,3.862,3.864,3.849,3.853,3.865,3.862,101.03,6,GPS_Atti
36.02165296,-78.00764799,272.7371413,43.963256,0,0.987040714,10600,2017/8/17 16:17,17,23.147,272.7371413,43.963256,0.50107456,1.251433767,332.5,1.6,-1.9,0,0,1024,1024,1373,1024,333.6,0,74,3.862,3.864,3.849,3.853,3.865,3.862,101.03,6,GPS_Atti
36.02165289,-78.00764789,273.3933093,44.619424,0,0.965134545,10700,2017/8/17 16:17,17,23.147,273.3933093,44.619424,0.50107456,1.251433767,332.6,2,-1.8,0,0,1024,1024,1380,1024,333.6,0,74,3.862,3.864,3.849,3.853,3.865,3.862,101.03,6,GPS_Atti
36.02165297,-78.00764779,273.7213933,44.947508,0,0.999475098,10800,2017/8/17 16:17,17,23.147,273.7213933,44.947508,0.50107456,1.251433767,332.6,2.1,-2,0,0,1024,1024,1377,1024,333.6,0,74,3.862,3.864,3.849,3.853,3.865,3.862,101.03,6,GPS_Atti
36.02165291,-78.00764767,274.3775613,45.603676,0,0.982578772,10900,2017/8/17 16:17,18,23.147,274.3775613,45.603676,0.50107456,1.251433767,332.7,1.9,-2.4,0,0,1024,1024,1338,1024,333.6,0,74,3.862,3.864,3.849,3.853,3.865,3.862,101.03,6,GPS_Atti
36.02165293,-78.00764765,275.0337293,46.259844,0,0.993759874,11000,2017/8/17 16:17,18,23.147,275.0337293,46.259844,0.50107456,1.251433767,332.8,1.9,-2.7,0,0,1024,1024,1322,1024,333.6,0,74,3.862,3.864,3.849,3.853,3.865,3.862,101.03,6,GPS_Atti
36.02165297,-78.00764751,275.6898973,46.916012,0,1.017690321,11100,2017/8/17 16:17,18,23.147,275.6898973,46.916012,0.50107456,1.251433767,332.7,2.3,-2.7,0,0,1024,1024,1337,1024,333.6,0,74,3.862,3.864,3.849,3.853,3.865,3.862,101.03,6,GPS_Atti
36.02165301,-78.00764752,276.0179813,47.244096,0,1.02979334,11200,2017/8/17 16:17,18,23.147,276.0179813,47.244096,0.50107456,1.251433767,332.6,2.8,-2.7,0,0,1024,1024,1358,1024,333.6,0,74,3.862,3.864,3.849,3.853,3.865,3.862,101.03,6,GPS_Atti
36.02165303,-78.00764742,276.6741493,47.900264,0,1.044071556,11300,2017/8/17 16:17,18,23.147,276.6741493,47.900264,0.50107456,1.251433767,332.5,3.3,-2.9,0,0,1024,1024,1361,1024,333.6,0,74,3.862,3.864,3.849,3.853,3.865,3.862,101.03,6,GPS_Atti
36.021653,-78.00764741,277.0022333,48.228348,0,1.036184416,11400,2017/8/17 16:17,18,23.147,277.0022333,48.228348,0.50107456,1.251433767,332.4,3.3,-3,0,0,1024,1024,1358,1024,333.6,0,74,3.862,3.864,3.849,3.853,3.865,3.862,101.03,6,GPS_Atti
36.02165306,-78.00764738,277.6584013,48.884516,0,1.058507252,11500,2017/8/17 16:17,18,23.218,277.6584013,48.884516,0.50107456,1.251433767,332.4,3.1,-3.3,0,0,1024,1024,1353,1024,333.6,0,74,3.865,3.882,3.864,3.856,3.882,3.867,101.03,6,GPS_Atti
36.02165301,-78.00764736,278.3145693,49.540684,0,1.043198852,11600,2017/8/17 16:17,18,23.218,278.3145693,49.540684,0.50107456,1.251433767,332.5,3,-3.5,0,0,1024,1024,1356,1024,333.6,0,74,3.865,3.882,3.864,3.856,3.882,3.867,101.03,6,GPS_Atti
36.0216529,-78.00764739,278.6426533,49.868768,0,1.00276578,11700,2017/8/17 16:17,18,23.218,278.6426533,49.868768,0.50107456,1.251433767,332.6,3,-3.4,0,0,1024,1024,1354,1024,333.6,0,74,3.865,3.882,3.864,3.856,3.882,3.867,101.03,6,GPS_Atti
36.02165287,-78.00764741,279.2988213,50.524936,0,0.990255937,11800,2017/8/17 16:17,18,23.218,279.2988213,50.524936,0.50107456,1.251433767,332.7,3,-3.4,0,0,1024,1024,1356,1024,333.6,-1.8,74,3.865,3.882,3.864,3.856,3.882,3.867,101.03,6,GPS_Atti
36.02165275,-78.00764735,279.9549893,51.181104,0,0.951683101,11900,2017/8/17 16:17,18,23.218,279.9549893,51.181104,0.50107456,1.251433767,332.8,2.8,-3.2,0,0,1024,1024,1356,1024,333.6,-7.8,74,3.865,3.882,3.864,3.856,3.882,3.867,101.03,6,GPS_Atti
36.02165269,-78.00764747,280.6111573,51.837272,0,0.923533494,12000,2017/8/17 16:17,18,23.218,280.6111573,51.837272,0.50107456,1.251433767,332.9,2.3,-2.8,0,0,1024,1024,1355,1024,333.6,-17.8,74,3.865,3.882,3.864,3.856,3.882,3.867,101.03,6,GPS_Atti
36.02165256,-78.00764755,281.2673253,52.49344,0,0.869251996,12100,2017/8/17 16:17,18,23.218,281.2673253,52.49344,0.50107456,1.251433767,333,2.2,-2.3,0,0,1024,1024,1350,1024,333.6,-29.6,74,3.865,3.882,3.864,3.856,3.882,3.867,101.03,6,GPS_Atti
36.02165255,-78.00764763,281.9234933,53.149608,0,0.86012798,12200,2017/8/17 16:17,18,23.218,281.9234933,53.149608,0.50107456,1.251433767,332.9,2.4,-1.6,0,0,1024,1024,1352,1024,333.6,-38.7,74,3.865,3.882,3.864,3.856,3.882,3.867,101.03,6,GPS_Atti
36.02165235,-78.0076478,282.2515773,53.477692,0,0.776538739,12300,2017/8/17 16:17,18,23.218,282.2515773,53.477692,0.50107456,1.251433767,332.7,2.8,-1,0,0,1024,1024,1353,1024,333.6,-43.8,74,3.865,3.882,3.864,3.856,3.882,3.867,101.03,6,GPS_Atti
36.02165229,-78.00764785,282.9077453,54.13386,0,0.751427189,12400,2017/8/17 16:17,18,23.218,282.9077453,54.13386,0.50107456,1.251433767,332.6,2.5,-1.1,0,0,1024,1024,1350,1024,333.6,-44.9,74,3.865,3.882,3.864,3.856,3.882,3.867,101.03,6,GPS_Atti
36.02165223,-78.00764785,283.2358293,54.461944,0,0.729819577,12500,2017/8/17 16:17,18,23.173,283.2358293,54.461944,0.50107456,1.251433767,332.7,2.5,-1.3,0,0,1024,1024,1346,1024,333.6,-44.9,74,3.865,3.882,3.864,3.856,3.882,3.867,101.03,6,GPS_Atti
36.02165218,-78.00764774,283.8919973,55.118112,0,0.719478369,12600,2017/8/17 16:17,18,23.173,283.8919973,55.118112,0.50107456,1.251433767,332.7,2.6,-1.6,0,0,1024,1024,1354,1024,333.6,-44.9,74,3.865,3.882,3.864,3.856,3.882,3.867,101.03,6,GPS_Atti
36.02165198,-78.0076476,284.5481653,55.77428,0,0.663090572,12700,2017/8/17 16:17,18,23.173,284.5481653,55.77428,0.50107456,1.251433767,332.6,2.3,-2.3,0,0,1024,1024,1320,1024,333.6,-44.9,74,3.865,3.882,3.864,3.856,3.882,3.867,101.03,6,GPS_Atti
36.02165204,-78.00764752,284.8762493,56.102364,0,0.691220495,12800,2017/8/17 16:17,18,23.173,284.8762493,56.102364,0.50107456,1.251433767,332.6,1.9,-2.8,0,0,1024,1024,1294,1024,333.6,-44.9,74,3.865,3.882,3.864,3.856,3.882,3.867,101.03,6,GPS_Atti
36.02165194,-78.00764736,285.5324173,56.758532,0,0.679619444,12900,2017/8/17 16:17,18,23.173,285.5324173,56.758532,0.50107456,1.251433767,332.5,1.9,-3.2,0,0,1024,1024,1301,1024,333.6,-44.9,74,3.865,3.882,3.864,3.856,3.882,3.867,101.03,6,GPS_Atti
36.02165203,-78.00764736,285.8605013,57.086616,0,0.707503303,13000,2017/8/17 16:17,18,23.173,285.8605013,57.086616,0.50107456,1.251433767,332.4,2.7,-3.5,0,0,1024,1024,1321,1024,333.6,-44.9,74,3.868,3.861,3.85,3.838,3.862,3.857,101.03,6,GPS_Atti
36.02165198,-78.00764726,286.1885853,57.4147,0,0.706138474,13100,2017/8/17 16:17,18,23.173,286.1885853,57.4147,0.50107456,1.251433767,332.4,3.1,-3.7,0,0,1024,1024,1330,1024,333.6,-44.9,74,3.868,3.861,3.85,3.838,3.862,3.857,101.03,6,GPS_Atti
36.021652,-78.00764729,286.8447533,58.070868,0,0.706761834,13200,2017/8/17 16:17,18,23.173,286.8447533,58.070868,0.50107456,1.251433767,332.6,2.9,-3.9,0,0,1024,1024,1329,1024,333.6,-44.9,74,3.868,3.861,3.85,3.838,3.862,3.857,101.03,6,GPS_Atti
36.02165197,-78.00764723,287.1728373,58.398952,0,0.706181125,13300,2017/8/17 16:17,18,23.173,287.1728373,58.398952,0.50107456,1.251433767,332.7,2.9,-3.7,0,0,1024,1024,1327,1024,333.6,-44.9,74,3.868,3.861,3.85,3.838,3.862,3.857,101.03,6,GPS_Atti
36.02165193,-78.00764731,287.8290053,59.05512,0,0.682437686,13400,2017/8/17 16:17,18,23.173,287.8290053,59.05512,0.50107456,1.251433767,332.8,3.2,-3.3,0,0,1024,1024,1327,1024,333.6,-44.9,74,3.868,3.861,3.85,3.838,3.862,3.857,101.03,6,GPS_Atti
36.02165178,-78.00764749,288.1570893,59.383204,0,0.607798576,13500,2017/8/17 16:17,18,23.173,288.1570893,59.383204,0.50107456,1.251433767,332.8,3.2,-3,0,0,1024,1024,1329,1024,333.6,-44.9,74,3.868,3.861,3.85,3.838,3.862,3.857,101.03,6,GPS_Atti
36.02165167,-78.00764757,288.8132573,60.039372,0,0.56282154,13600,2017/8/17 16:17,18,23.173,288.8132573,60.039372,0.50107456,1.251433767,332.9,2.9,-2.7,0,0,1024,1024,1329,1024,333.6,-44.9,74,3.868,3.861,3.85,3.838,3.862,3.857,101.03,6,GPS_Atti
36.02165151,-78.0076476,289.4694253,60.69554,0.223694,0.506768389,13700,2017/8/17 16:17,18,23.173,289.4694253,60.69554,0.50107456,1.251433767,332.9,2.7,-2.1,0,0,1024,1024,1328,1024,333.6,-44.9,74,3.868,3.861,3.85,3.838,3.862,3.857,101.03,6,GPS_Atti
36.02165146,-78.00764759,289.7975093,61.023624,0.223694,0.49146327,13800,2017/8/17 16:17,18,23.173,289.7975093,61.023624,0.50107456,1.251433767,333,2.4,-1.7,0,0,1024,1024,1327,1024,333.6,-45,74,3.868,3.861,3.85,3.838,3.862,3.857,101.03,6,GPS_Atti
36.0216513,-78.0076477,290.4536773,61.679792,0,0.424609594,13900,2017/8/17 16:17,18,23.173,290.4536773,61.679792,0.50107456,1.251433767,332.9,2,-1.4,0,0,1024,1024,1325,1024,333.6,-45,74,3.868,3.861,3.85,3.838,3.862,3.857,101.03,6,GPS_Atti
36.02165129,-78.00764772,290.7817613,62.007876,0,0.420295289,14000,2017/8/17 16:17,18,23.175,290.7817613,62.007876,0.50107456,1.251433767,332.9,1.9,-1.2,0,0,1024,1024,1327,1024,333.6,-45.1,74,3.867,3.864,3.852,3.863,3.87,3.852,101.03,6,GPS_Atti
36.02165131,-78.00764805,291.4379293,62.664044,0,0.391840564,14100,2017/8/17 16:17,18,23.175,291.4379293,62.664044,0.50107456,1.251433767,332.9,2,-1.2,0,0,1024,1024,1321,1024,333.6,-48,74,3.867,3.864,3.852,3.863,3.87,3.852,101.03,6,GPS_Atti
36.0216514,-78.00764807,291.7660133,62.992128,0,0.421328754,14200,2017/8/17 16:17,18,23.175,291.7660133,62.992128,0.50107456,1.251433767,332.8,2.4,-1.1,0,0,1024,1024,1321,1024,333.6,-50.7,74,3.867,3.864,3.852,3.863,3.87,3.852,101.03,6,GPS_Atti
36.02165123,-78.00764838,292.4221813,63.648296,0,0.349980326,14300,2017/8/17 16:17,18,23.175,292.4221813,63.648296,0.50107456,1.251433767,332.8,2.9,-1,0,0,1024,1024,1322,1024,333.6,-50.7,74,3.867,3.864,3.852,3.863,3.87,3.852,101.03,6,GPS_Atti
36.02165124,-78.00764838,292.7502653,63.97638,0,0.350941612,14400,2017/8/17 16:17,18,23.175,292.7502653,63.97638,0.50107456,1.251433767,332.8,3.1,-0.8,0,0,1024,1024,1322,1024,333.6,-50.7,74,3.867,3.864,3.852,3.863,3.87,3.852,101.03,6,GPS_Atti
36.02165119,-78.00764854,293.4064333,64.632548,0,0.337972452,14500,2017/8/17 16:17,18,23.175,293.4064333,64.632548,0.50107456,1.251433767,332.7,3.2,-0.8,0,0,1024,1024,1319,1024,333.6,-50.7,74,3.867,3.864,3.852,3.863,3.87,3.852,101.03,6,GPS_Atti
36.02165117,-78.00764847,294.0626013,65.288716,0,0.326487215,14600,2017/8/17 16:17,18,23.175,294.0626013,65.288716,0.50107456,1.251433767,332.7,3,-0.8,0,0,1024,1024,1320,1024,333.6,-50.8,74,3.867,3.864,3.852,3.863,3.87,3.852,101.03,6,GPS_Atti
36.02165105,-78.00764848,294.3906853,65.6168,0,0.283233605,14700,2017/8/17 16:17,18,23.175,294.3906853,65.6168,0.50107456,1.251433767,332.7,2.5,-1.1,0,0,1024,1024,1322,1024,333.6,-50.8,74,3.867,3.864,3.852,3.863,3.87,3.852,101.03,6,GPS_Atti
36.02165101,-78.0076483,295.0468533,66.272968,0,0.267887476,14800,2017/8/17 16:17,18,23.175,295.0468533,66.272968,0.50107456,1.251433767,332.7,2.4,-1.1,0,0,1024,1024,1321,1024,333.6,-50.7,74,3.867,3.864,3.852,3.863,3.87,3.852,101.03,6,GPS_Atti
36.02165091,-78.00764822,295.3749373,66.601052,0,0.236315624,14900,2017/8/17 16:17,18,23.175,295.3749373,66.601052,0.50107456,1.251433767,332.8,2.4,-1.2,0,0,1024,1024,1321,1024,333.6,-50.7,74,3.867,3.864,3.852,3.863,3.87,3.852,101.03,6,GPS_Atti
36.02165091,-78.00764817,296.0311053,67.25722,0,0.240968184,15000,2017/8/17 16:17,18,23.153,296.0311053,67.25722,0.50107456,1.251433767,333,2.5,-1.5,0,0,1024,1024,1320,1024,333.6,-50.7,74,3.861,3.856,3.852,3.849,3.872,3.854,101.21,6,GPS_Atti
36.02165102,-78.00764803,296.3591893,67.585304,0,0.291192595,15100,2017/8/17 16:17,18,23.153,296.3591893,67.585304,0.50107456,1.251433767,333.2,2.6,-1.7,0,0,1024,1024,1318,1024,333.6,-50.7,74,3.861,3.856,3.852,3.849,3.872,3.854,101.21,6,GPS_Atti
36.02165101,-78.00764802,297.0153573,68.241472,0,0.289190626,15200,2017/8/17 16:17,18,23.153,297.0153573,68.241472,0.50107456,1.251433767,333.2,2.6,-2,0,0,1024,1024,1313,1024,333.6,-50.7,74,3.861,3.856,3.852,3.849,3.872,3.854,101.21,6,GPS_Atti
36.0216508,-78.0076479,297.6715253,68.89764,0,0.240128289,15300,2017/8/17 16:17,18,23.153,297.6715253,68.89764,0.50107456,1.251433767,333.2,2.8,-2.2,0,0,1024,1024,1321,1024,333.6,-50.7,74,3.861,3.856,3.852,3.849,3.872,3.854,101.21,6,GPS_Atti
36.02165082,-78.00764793,297.9996093,69.225724,0,0.240142068,15400,2017/8/17 16:17,18,23.153,297.9996093,69.225724,0.50107456,1.251433767,333,2.6,-2.1,0,0,1024,1024,1325,1024,333.6,-50.7,74,3.861,3.856,3.852,3.849,3.872,3.854,101.21,6,GPS_Atti
36.0216508,-78.00764774,298.6557773,69.881892,0,0.270034457,15500,2017/8/17 16:17,18,23.153,298.6557773,69.881892,0.50107456,1.251433767,332.8,2.3,-2.2,0,0,1024,1024,1325,1024,333.6,-50.8,74,3.861,3.856,3.852,3.849,3.872,3.854,101.21,6,GPS_Atti
36.02165076,-78.00764772,298.9838613,70.209976,0,0.264293972,15600,2017/8/17 16:17,18,23.153,298.9838613,70.209976,0.50107456,1.251433767,332.7,1.9,-2.4,0,0,1024,1024,1319,1024,333.6,-51.6,74,3.861,3.856,3.852,3.849,3.872,3.854,101.21,6,GPS_Atti
36.02165077,-78.00764741,299.6400293,70.866144,0,0.339498042,15700,2017/8/17 16:17,18,23.153,299.6400293,70.866144,0.50107456,1.251433767,332.6,1.5,-2.6,0,0,1024,1024,1316,1024,333.6,-54.5,74,3.861,3.856,3.852,3.849,3.872,3.854,101.21,6,GPS_Atti
36.02165072,-78.00764731,299.9681133,71.194228,0,0.357148962,15800,2017/8/17 16:17,18,23.153,299.9681133,71.194228,0.50107456,1.251433767,332.6,1.6,-2.6,0,0,1024,1024,1313,1024,333.6,-54.8,74,3.861,3.856,3.852,3.849,3.872,3.854,101.21,6,GPS_Atti
36.02165055,-78.00764725,300.6242813,71.850396,0,0.34944883,15900,2017/8/17 16:17,18,23.153,300.6242813,71.850396,0.50107456,1.251433767,332.7,1.4,-2.6,0,0,1024,1024,1314,1024,333.6,-54.8,74,3.861,3.856,3.852,3.849,3.872,3.854,101.21,6,GPS_Atti
36.02165049,-78.00764708,300.9523653,72.17848,0,0.393090564,16000,2017/8/17 16:17,18,23.109,300.9523653,72.17848,0.50107456,1.251433767,332.7,1.2,-2.8,0,0,1024,1024,1316,1024,333.6,-54.8,74,3.855,3.851,3.851,3.844,3.859,3.847,101.21,6,GPS_Atti
36.02165044,-78.00764695,301.6085333,72.834648,0,0.427887153,16100,2017/8/17 16:17,18,23.109,301.6085333,72.834648,0.50107456,1.251433767,332.7,1.1,-2.7,0,0,1024,1024,1320,1024,333.6,-54.8,73,3.855,3.851,3.851,3.844,3.859,3.847,101.21,6,GPS_Atti
36.02165039,-78.00764689,301.9366173,73.162732,0,0.443001983,16200,2017/8/17 16:17,18,23.109,301.9366173,73.162732,0.50107456,1.251433767,332.6,1.1,-2.7,0,0,1024,1024,1320,1024,333.6,-54.8,73,3.855,3.851,3.851,3.844,3.859,3.847,101.21,6,GPS_Atti
36.02165035,-78.00764683,302.2647013,73.490816,0,0.460954739,16300,2017/8/17 16:17,18,23.109,302.2647013,73.490816,0.50107456,1.251433767,332.6,1.1,-2.6,0,0,1024,1024,1321,1024,333.6,-54.8,73,3.855,3.851,3.851,3.844,3.859,3.847,101.21,6,GPS_Atti
36.02165037,-78.00764688,302.9208693,74.146984,0,0.447139122,16400,2017/8/17 16:17,18,23.109,302.9208693,74.146984,0.50107456,1.251433767,332.6,1.1,-2.3,0,0,1024,1024,1321,1024,333.6,-54.8,73,3.855,3.851,3.851,3.844,3.859,3.847,101.21,6,GPS_Atti
36.02165039,-78.00764683,303.2489533,74.475068,0,0.461345159,16500,2017/8/17 16:17,18,23.109,303.2489533,74.475068,0.50107456,1.251433767,332.6,1.4,-1.8,0,0,1024,1024,1324,1024,333.6,-54.8,73,3.855,3.851,3.851,3.844,3.859,3.847,101.21,6,GPS_Atti
36.02165041,-78.00764688,303.9051213,75.131236,0,0.447775605,16600,2017/8/17 16:17,18,23.109,303.9051213,75.131236,0.50107456,1.251433767,332.6,1.7,-1.3,0,0,1024,1024,1323,1024,333.6,-54.8,73,3.855,3.851,3.851,3.844,3.859,3.847,101.21,6,GPS_Atti
36.02165048,-78.00764688,304.2332053,75.45932,0,0.450866156,16700,2017/8/17 16:17,18,23.109,304.2332053,75.45932,0.50107456,1.251433767,332.7,2,-1.4,0,0,1024,1024,1320,1024,333.6,-54.8,73,3.855,3.851,3.851,3.844,3.859,3.847,101.21,6,GPS_Atti
36.0216505,-78.00764685,304.5612893,75.787404,0,0.460951458,16800,2017/8/17 16:17,18,23.109,304.5612893,75.787404,0.50107456,1.251433767,332.7,2,-1.8,0,0,1024,1024,1323,1024,333.6,-54.8,73,3.855,3.851,3.851,3.844,3.859,3.847,101.21,6,GPS_Atti
36.02165049,-78.00764678,305.2174573,76.443572,0,0.480715238,16900,2017/8/17 16:17,18,23.109,305.2174573,76.443572,0.50107456,1.251433767,332.7,1.9,-2.3,0,0,1024,1024,1320,1024,333.6,-54.8,73,3.855,3.851,3.851,3.844,3.859,3.847,101.21,6,GPS_Atti
36.02165049,-78.00764674,305.5455413,76.771656,0,0.493818913,17000,2017/8/17 16:17,18,23.095,305.5455413,76.771656,0.50107456,1.251433767,332.7,1.8,-2.6,0,0,1024,1024,1308,1024,333.6,-54.8,73,3.86,3.853,3.844,3.837,3.849,3.845,101.21,6,GPS_Atti
36.02165049,-78.00764654,305.8736253,77.09974,0,0.550216553,17100,2017/8/17 16:17,18,23.095,305.8736253,77.09974,0.50107456,1.251433767,332.8,1.6,-2.5,0,0,1024,1024,1294,1024,333.6,-54.8,73,3.86,3.853,3.844,3.837,3.849,3.845,101.21,6,GPS_Atti
36.0216505,-78.00764658,306.5297933,77.755908,0,0.538881251,17200,2017/8/17 16:17,18,23.095,306.5297933,77.755908,0.50107456,1.251433767,332.8,1.7,-3,0,0,1024,1024,1285,1024,333.6,-54.8,73,3.86,3.853,3.844,3.837,3.849,3.845,101.21,6,GPS_Atti
36.02165048,-78.00764647,306.8578773,78.083992,0,0.571299231,17300,2017/8/17 16:17,18,23.095,306.8578773,78.083992,0.50107456,1.251433767,332.7,1.8,-3.1,0,0,1024,1024,1254,1024,333.6,-54.8,73,3.86,3.853,3.844,3.837,3.849,3.845,101.21,6,GPS_Atti
36.0216505,-78.00764648,307.1859613,78.412076,0,0.569120753,17400,2017/8/17 16:17,18,23.095,307.1859613,78.412076,0.50107456,1.251433767,332.6,1.8,-2.7,0,0,1024,1024,1273,1024,333.6,-54.8,73,3.86,3.853,3.844,3.837,3.849,3.845,101.21,6,GPS_Atti
36.02165051,-78.00764638,307.8421293,79.068244,0,0.599872066,17500,2017/8/17 16:17,18,23.095,307.8421293,79.068244,0.50107456,1.251433767,332.5,1.8,-2.8,0,0,1024,1024,1321,1024,333.6,-54.8,73,3.86,3.853,3.844,3.837,3.849,3.845,101.21,6,GPS_Atti
36.02165055,-78.00764627,308.1702133,79.396328,0.223694,0.633257894,17600,2017/8/17 16:17,18,23.095,308.1702133,79.396328,0.50107456,1.251433767,332.4,1.7,-3.1,0,0,1024,1024,1335,1024,333.6,-54.8,73,3.86,3.853,3.844,3.837,3.849,3.845,101.21,6,GPS_Atti
36.02165058,-78.00764591,308.4982973,79.724412,0.223694,0.739452123,17700,2017/8/17 16:17,18,23.095,308.4982973,79.724412,0.50107456,1.251433767,332.3,1.5,-3.7,0,0,1024,1024,1351,1024,333.6,-54.8,73,3.86,3.853,3.844,3.837,3.849,3.845,101.21,6,GPS_Atti
36.02165062,-78.00764576,308.8263813,80.052496,0.223694,0.786574828,17800,2017/8/17 16:17,18,23.095,308.8263813,80.052496,0.50107456,1.251433767,332.3,1.1,-4.2,0,0,1024,1024,1402,1024,333.6,-54.8,73,3.86,3.853,3.844,3.837,3.849,3.845,101.21,6,GPS_Atti
36.02165066,-78.00764539,309.4825493,80.708664,0.223694,0.894547273,17900,2017/8/17 16:17,18,23.095,309.4825493,80.708664,0.50107456,1.251433767,332.3,0.6,-4.5,0,0,1024,1024,1412,1024,333.6,-54.8,73,3.86,3.853,3.844,3.837,3.849,3.845,101.21,6,GPS_Atti
36.02165071,-78.00764522,309.8106333,81.036748,0.223694,0.947237563,18000,2017/8/17 16:17,18,23.031,309.8106333,81.036748,0.50107456,1.251433767,332.4,0.1,-4.6,0,0,1024,1024,1392,1024,333.6,-54.8,73,3.86,3.853,3.844,3.837,3.849,3.845,101.21,6,GPS_Atti
36.02165076,-78.00764503,310.4668013,81.692916,0.31540854,1.005269061,18100,2017/8/17 16:17,18,23.031,310.4668013,81.692916,0.50107456,1.251433767,332.6,0,-4.7,0,0,1024,1024,1389,1024,333.6,-54.8,73,3.86,3.853,3.844,3.837,3.849,3.845,101.21,6,GPS_Atti
36.02165077,-78.00764484,310.7948853,82.021,0.223694,1.062231005,18200,2017/8/17 16:17,18,23.031,310.7948853,82.021,0.50107456,1.251433767,332.7,0.4,-5.3,0,0,1024,1024,1397,1024,333.6,-54.8,73,3.86,3.853,3.844,3.837,3.849,3.845,101.21,6,GPS_Atti
36.02165101,-78.00764484,311.4510533,82.677168,0.223694,1.080895704,18300,2017/8/17 16:17,18,23.031,311.4510533,82.677168,0.50107456,1.251433767,332.8,1.2,-5.8,0,0,1024,1024,1389,1024,333.6,-54.8,73,3.86,3.853,3.844,3.837,3.849,3.845,101.21,6,GPS_Atti
36.02165118,-78.00764484,312.1072213,83.333336,0.223694,1.09892392,18400,2017/8/17 16:17,18,23.031,312.1072213,83.333336,0.50107456,1.251433767,332.7,1.9,-6,0,0,1024,1024,1409,1024,333.6,-54.7,73,3.86,3.853,3.844,3.837,3.849,3.845,101.21,6,GPS_Atti
36.02165138,-78.00764493,312.7633893,83.989504,0.223694,1.09720476,18500,2017/8/17 16:17,18,23.031,312.7633893,83.989504,0.50107456,1.251433767,332.5,3,-6.3,0,0,1024,1024,1394,1024,333.6,-54.7,73,3.839,3.855,3.823,3.832,3.857,3.819,101.21,6,GPS_Atti
36.02165152,-78.00764502,313.4195573,84.645672,0.223694,1.092929825,18600,2017/8/17 16:17,18,23.031,313.4195573,84.645672,0.50107456,1.251433767,332.3,4,-6.1,0,0,1024,1024,1353,1024,333.6,-56.2,73,3.839,3.855,3.823,3.832,3.857,3.819,101.21,6,GPS_Atti
36.02165157,-78.00764514,313.7476413,84.973756,0,1.067979037,18700,2017/8/17 16:17,18,23.031,313.7476413,84.973756,0.50107456,1.251433767,332.2,4.5,-5.1,0,0,1024,1024,1354,1024,333.6,-58.6,73,3.839,3.855,3.823,3.832,3.857,3.819,101.21,6,GPS_Atti
36.02165166,-78.00764532,314.4038093,85.629924,0,1.03834649,18800,2017/8/17 16:17,18,23.031,314.4038093,85.629924,0.50107456,1.251433767,332.2,4.5,-4.5,0,0,1024,1024,1356,1024,333.6,-58.7,73,3.839,3.855,3.823,3.832,3.857,3.819,101.21,6,GPS_Atti
36.02165143,-78.00764526,315.0599773,86.286092,0,1.014140452,18900,2017/8/17 16:17,18,23.031,315.0599773,86.286092,0.50107456,1.251433767,332.3,4.3,-4.5,0,0,1024,1024,1368,1024,333.6,-58.7,73,3.839,3.855,3.823,3.832,3.857,3.819,101.21,6,GPS_Atti
36.02165133,-78.00764526,316.0442293,87.270344,0,1.000252657,19000,2017/8/17 16:17,18,23.031,316.0442293,87.270344,0.50107456,1.251433767,332.4,3.7,-4.5,0,0,1024,1024,1372,1024,333.6,-58.7,73,3.839,3.855,3.823,3.832,3.857,3.819,101.21,6,GPS_Atti
36.02165102,-78.00764514,316.3723133,87.598428,0.223694,0.996456725,19100,2017/8/17 16:17,18,23.031,316.3723133,87.598428,0.50107456,1.251433767,332.6,2.3,-4.8,0,0,1024,1024,1375,1024,333.6,-58.7,73,3.839,3.855,3.823,3.832,3.857,3.819,101.21,6,GPS_Atti
36.0216509,-78.00764516,317.0284813,88.254596,0.223694,0.97983927,19200,2017/8/17 16:17,18,23.031,317.0284813,88.254596,0.50107456,1.251433767,332.6,1,-4.8,0,0,1024,1024,1378,1024,333.6,-58.8,73,3.839,3.855,3.823,3.832,3.857,3.819,101.21,6,GPS_Atti
36.02165059,-78.0076451,317.6846493,88.910764,0.223694,0.976640451,19300,2017/8/17 16:17,18,23.031,317.6846493,88.910764,0.50107456,1.251433767,332.7,0.2,-4.2,0,0,1024,1024,1363,1024,333.6,-61.9,73,3.839,3.855,3.823,3.832,3.857,3.819,101.21,6,GPS_Atti
36.02165034,-78.00764504,318.3408173,89.566932,0.223694,0.988385858,19400,2017/8/17 16:17,18,23.031,318.3408173,89.566932,0.50107456,1.251433767,332.7,-0.3,-3.4,0,0,1024,1024,1380,1024,333.6,-69,73,3.839,3.855,3.823,3.832,3.857,3.819,101.21,6,GPS_Atti
36.0216501,-78.00764508,318.9969853,90.2231,0.223694,0.978310399,19500,2017/8/17 16:17,18,22.957,318.9969853,90.2231,0.50107456,1.251433767,332.6,-0.6,-2.7,0,0,1024,1024,1377,1024,333.6,-79.2,73,3.822,3.839,3.801,3.834,3.845,3.824,101.21,6,GPS_Atti
36.02165002,-78.00764507,319.6531533,90.879268,0,0.982605018,19600,2017/8/17 16:17,18,22.957,319.6531533,90.879268,0.50107456,1.251433767,332.5,-0.3,-2.5,0,0,1024,1024,1354,1024,333.6,-86.5,73,3.822,3.839,3.801,3.834,3.845,3.824,101.21,6,GPS_Atti
36.02165015,-78.00764508,319.9812373,91.207352,0,0.978143076,19700,2017/8/17 16:17,18,22.957,319.9812373,91.207352,0.50107456,1.251433767,332.4,0,-2.9,0,0,1024,1024,1354,1024,333.6,-89.6,73,3.822,3.839,3.801,3.834,3.845,3.824,101.21,6,GPS_Atti
36.02165014,-78.00764492,320.6374053,91.86352,0,1.024124049,19800,2017/8/17 16:17,18,22.957,320.6374053,91.86352,0.50107456,1.251433767,332.4,0.4,-3.9,0,0,1024,1024,1349,1024,333.6,-89.8,73,3.822,3.839,3.801,3.834,3.845,3.824,101.21,6,GPS_Atti
36.02165017,-78.00764477,321.2935733,92.519688,0,1.067591898,19900,2017/8/17 16:17,18,22.957,321.2935733,92.519688,0.50107456,1.251433767,332.4,0.7,-4.8,0,0,1024,1024,1327,1024,333.6,-89.8,73,3.822,3.839,3.801,3.834,3.845,3.824,101.21,6,GPS_Atti
36.02165024,-78.0076448,321.9497413,93.175856,0,1.058999378,20000,2017/8/17 16:17,18,22.957,321.9497413,93.175856,0.50107456,1.251433767,332.5,1,-5.2,0,0,1024,1024,1317,1024,333.6,-89.7,73,3.822,3.839,3.801,3.834,3.845,3.824,101.21,6,GPS_Atti
36.02165023,-78.00764471,322.2778253,93.50394,0,1.084442292,20100,2017/8/17 16:17,18,22.957,322.2778253,93.50394,0.50107456,1.251433767,332.5,1.7,-5.2,0,0,1024,1024,1312,1024,333.6,-89.7,73,3.822,3.839,3.801,3.834,3.845,3.824,101.21,6,GPS_Atti
36.02165025,-78.00764474,322.9339933,94.160108,0,1.07654531,20200,2017/8/17 16:17,18,22.957,322.9339933,94.160108,0.50107456,1.251433767,332.5,2,-5.2,0,0,1024,1024,1318,1024,333.6,-89.8,73,3.822,3.839,3.801,3.834,3.845,3.824,101.21,6,GPS_Atti
36.02165024,-78.00764477,323.2620773,94.488192,0,1.067513158,20300,2017/8/17 16:17,18,22.957,323.2620773,94.488192,0.50107456,1.251433767,332.5,2,-5.1,0,0,1024,1024,1324,1024,333.6,-89.9,73,3.822,3.839,3.801,3.834,3.845,3.824,101.21,6,GPS_Atti
36.02165015,-78.00764483,323.9182453,95.14436,0,1.051171293,20400,2017/8/17 16:17,18,22.957,323.9182453,95.14436,0.50107456,1.251433767,332.7,1.9,-4.9,0,0,1024,1024,1322,1024,333.6,-90.1,73,3.822,3.839,3.801,3.834,3.845,3.824,101.21,6,GPS_Atti
36.02165001,-78.00764477,324.5744133,95.800528,0,1.07088258,20500,2017/8/17 16:17,18,23.037,324.5744133,95.800528,0.50107456,1.251433767,332.9,1.3,-4.6,0,0,1024,1024,1340,1024,333.6,-90.1,73,3.841,3.827,3.841,3.836,3.843,3.844,101.39,6,GPS_Atti
36.02164998,-78.00764481,324.9024973,96.128612,0,1.062260533,20600,2017/8/17 16:17,18,23.037,324.9024973,96.128612,0.50107456,1.251433767,333.2,0.8,-4.1,0,0,1024,1024,1347,1024,333.6,-90.1,73,3.841,3.827,3.841,3.836,3.843,3.844,101.39,6,GPS_Atti
36.02164965,-78.00764476,325.5586653,96.78478,0,1.095787437,20700,2017/8/17 16:17,18,23.037,325.5586653,96.78478,0.50107456,1.251433767,333.3,0.1,-3.9,0,0,1024,1024,1347,1024,333.6,-90.1,73,3.841,3.827,3.841,3.836,3.843,3.844,101.39,6,GPS_Atti
36.02164963,-78.00764479,325.8867493,97.112864,0,1.087368801,20800,2017/8/17 16:17,18,23.037,325.8867493,97.112864,0.50107456,1.251433767,333.3,-0.9,-3.9,0,0,1024,1024,1345,1024,333.6,-90,73,3.841,3.827,3.841,3.836,3.843,3.844,101.39,6,GPS_Atti
36.02164957,-78.00764481,326.5429173,97.769032,0,1.085702134,20900,2017/8/17 16:17,18,23.037,326.5429173,97.769032,0.50107456,1.251433767,333.2,-1.3,-4,0,0,1024,1024,1341,1024,333.6,-89.8,73,3.841,3.827,3.841,3.836,3.843,3.844,101.39,6,GPS_Atti
36.02164959,-78.0076447,326.8710013,98.097116,0,1.117309747,21000,2017/8/17 16:17,18,23.037,326.8710013,98.097116,0.50107456,1.251433767,333,-1,-4.2,0,0,1024,1024,1342,1024,333.6,-89.8,73,3.841,3.827,3.841,3.836,3.843,3.844,101.39,6,GPS_Atti
36.02164952,-78.00764479,327.5271693,98.753284,0.223694,1.096686387,21100,2017/8/17 16:17,18,23.037,327.5271693,98.753284,0.50107456,1.251433767,332.9,-0.4,-4.7,0,0,1024,1024,1331,1024,333.6,-89.8,73,3.841,3.827,3.841,3.836,3.843,3.844,101.39,6,GPS_Atti
36.02164965,-78.0076448,328.1833373,99.409452,0.223694,1.084688355,21200,2017/8/17 16:17,18,23.037,328.1833373,99.409452,0.50107456,1.251433767,332.8,0,-5.1,0,0,1024,1024,1186,1024,333.6,-89.8,73,3.841,3.827,3.841,3.836,3.843,3.844,101.39,6,GPS_Atti
36.02164989,-78.00764481,328.5114213,99.737536,0.223694,1.065859614,21300,2017/8/17 16:17,18,23.037,328.5114213,99.737536,0.50107456,1.251433767,332.8,0.6,-5.5,0,0,1024,1024,1024,1024,333.6,-89.8,73,3.841,3.827,3.841,3.836,3.843,3.844,101.39,6,GPS_Atti
36.02164995,-78.00764488,329.1675893,100.393704,0.223694,1.042424574,21400,2017/8/17 16:17,18,23.037,329.1675893,100.393704,0.50107456,1.251433767,332.8,1.3,-5.4,0,0,1024,1024,1024,1024,333.6,-89.7,73,3.841,3.827,3.841,3.836,3.843,3.844,101.39,6,GPS_Atti
36.02165006,-78.00764516,329.4956733,100.721788,0.31540854,0.955127983,21500,2017/8/17 16:17,18,23.077,329.4956733,100.721788,0.50107456,1.251433767,332.8,2.4,-5.4,0,0,1024,1024,1024,1024,333.6,-89.7,73,3.856,3.851,3.845,3.848,3.855,3.845,101.39,6,GPS_Atti
36.02165017,-78.00764537,329.8237573,101.049872,0.31540854,0.891797929,21600,2017/8/17 16:17,18,23.077,329.8237573,101.049872,0.50107456,1.251433767,332.8,3.4,-5.4,0,0,1024,1024,1024,1024,333.6,-89.7,73,3.856,3.851,3.845,3.848,3.855,3.845,101.39,6,GPS_Atti
36.02165035,-78.00764564,330.1518413,101.377956,0.31540854,0.81165685,21700,2017/8/17 16:17,18,23.077,330.1518413,101.377956,0.50107456,1.251433767,332.9,3.9,-5,0,0,1024,1024,1024,1024,333.6,-89.9,73,3.856,3.851,3.845,3.848,3.855,3.845,101.39,6,GPS_Atti
36.02165043,-78.00764578,330.1518413,101.377956,0.223694,0.772811705,21800,2017/8/17 16:17,18,23.077,330.1518413,101.377956,0.50107456,1.251433767,333,3.7,-4.4,0,0,1024,1024,1024,1024,333.6,-90.1,73,3.856,3.851,3.845,3.848,3.855,3.845,101.39,6,GPS_Atti
36.02165025,-78.007646,330.4799253,101.70604,0,0.705403566,21900,2017/8/17 16:17,18,23.077,330.4799253,101.70604,0.50107456,1.251433767,333,3.2,-4.1,0,0,1024,1024,1024,1024,333.6,-90.1,73,3.856,3.851,3.845,3.848,3.855,3.845,101.39,6,GPS_Atti
36.02165021,-78.00764597,330.4799253,101.70604,0,0.71495081,22000,2017/8/17 16:17,18,23.077,330.4799253,101.70604,0.50107456,1.251433767,333,2.4,-3.9,0,0,1024,1024,1024,1024,333.6,-90.1,73,3.856,3.851,3.845,3.848,3.855,3.845,101.39,6,GPS_Atti
36.02165029,-78.00764611,330.4799253,101.70604,0,0.67315947,22100,2017/8/17 16:17,18,23.077,330.4799253,101.70604,0.50107456,1.251433767,333,1.4,-3.8,0,0,1024,1024,1024,1024,333.6,-90.1,73,3.856,3.851,3.845,3.848,3.855,3.845,101.39,6,GPS_Atti
36.02165007,-78.00764588,330.4799253,101.70604,0,0.743920627,22200,2017/8/17 16:17,18,23.077,330.4799253,101.70604,0.50107456,1.251433767,333,0.5,-4.1,0,0,1024,1024,1024,1024,333.6,-90,73,3.856,3.851,3.845,3.848,3.855,3.845,101.39,6,GPS_Atti
36.02165062,-78.00764607,330.4799253,101.70604,0.223694,0.697286768,22300,2017/8/17 16:17,18,23.077,330.4799253,101.70604,0.50107456,1.251433767,333.1,0.3,-4.4,0,0,1024,1024,1024,1024,333.6,-89.9,73,3.856,3.851,3.845,3.848,3.855,3.845,101.39,6,GPS_Atti
36.02165069,-78.00764613,330.4799253,101.70604,0.223694,0.683779549,22400,2017/8/17 16:17,18,23.077,330.4799253,101.70604,0.50107456,1.251433767,333.1,0.5,-4.4,0,0,1024,1024,1024,1024,333.6,-89.8,73,3.856,3.851,3.845,3.848,3.855,3.845,101.39,6,GPS_Atti
36.02165087,-78.0076463,330.4799253,101.70604,0.223694,0.65413716,22500,2017/8/17 16:17,18,23.07,330.4799253,101.70604,0.50107456,1.251433767,333,1.5,-4.4,0,0,1024,1024,1024,1024,333.6,-89.8,73,3.884,3.863,3.88,3.842,3.863,3.882,101.39,6,GPS_Atti
36.02165091,-78.00764639,330.4799253,101.70604,0,0.63363191,22600,2017/8/17 16:17,18,23.07,330.4799253,101.70604,0.50107456,1.251433767,332.9,2.2,-4.3,0,0,1024,1024,1024,1024,333.6,-89.8,73,3.884,3.863,3.88,3.842,3.863,3.882,101.39,6,GPS_Atti
36.02165103,-78.00764687,330.4799253,101.70604,0.223694,0.52665356,22700,2017/8/17 16:17,18,23.07,330.4799253,101.70604,0.50107456,1.251433767,332.8,2.5,-4,0,0,1024,1024,1022,1024,333.6,-89.7,73,3.884,3.863,3.88,3.842,3.863,3.882,101.39,6,GPS_Atti
36.02165109,-78.00764702,330.4799253,101.70604,0.223694,0.501758546,22800,2017/8/17 16:17,18,23.07,330.4799253,101.70604,0.50107456,1.251433767,332.8,2.8,-3.6,0,0,1024,1024,1024,1024,333.6,-89.7,73,3.884,3.863,3.88,3.842,3.863,3.882,101.39,6,GPS_Atti
36.0216511,-78.00764744,330.4799253,101.70604,0.223694,0.411259856,22900,2017/8/17 16:17,18,23.07,330.4799253,101.70604,0.50107456,1.251433767,332.7,2.9,-3,0,0,1024,1024,1024,1024,333.6,-89.9,73,3.884,3.863,3.88,3.842,3.863,3.882,101.39,6,GPS_Atti
36.02165112,-78.00764759,330.4799253,101.70604,0.223694,0.386236889,23000,2017/8/17 16:17,18,23.07,330.4799253,101.70604,0.50107456,1.251433767,332.7,2.8,-2.3,0,0,1024,1024,1024,1024,333.6,-90.1,73,3.884,3.863,3.88,3.842,3.863,3.882,101.39,6,GPS_Atti
36.02165111,-78.0076477,330.1518413,101.377956,0.223694,0.365387151,23100,2017/8/17 16:17,18,23.07,330.4799253,101.70604,0.50107456,1.251433767,332.7,2.5,-2.1,0,0,1024,1024,1024,1024,333.6,-89.9,73,3.884,3.863,3.88,3.842,3.863,3.882,101.39,6,GPS_Atti
36.02165112,-78.0076479,330.1518413,101.377956,0,0.339196205,23200,2017/8/17 16:17,18,23.07,330.4799253,101.70604,0.50107456,1.251433767,332.6,2.6,-2.1,0,0,1024,1024,1024,1024,333.6,-89.8,73,3.884,3.863,3.88,3.842,3.863,3.882,101.39,6,GPS_Atti
36.02165131,-78.00764795,330.1518413,101.377956,0,0.399983609,23300,2017/8/17 16:17,18,23.07,330.4799253,101.70604,0.50107456,1.251433767,332.7,2.8,-2.2,0,0,1024,1024,1024,1024,333.6,-89.7,73,3.884,3.863,3.88,3.842,3.863,3.882,101.39,6,GPS_Atti
36.02165139,-78.00764802,330.1518413,101.377956,0,0.422165368,23400,2017/8/17 16:17,18,23.07,330.4799253,101.70604,0.50107456,1.251433767,332.7,3.2,-2.6,0,0,1024,1024,1024,1024,333.6,-89.7,73,3.884,3.863,3.88,3.842,3.863,3.882,101.39,6,GPS_Atti
36.0216516,-78.00764812,330.1518413,101.377956,0.223694,0.488697522,23500,2017/8/17 16:17,18,23.176,330.4799253,101.70604,0.50107456,1.251433767,332.6,3.6,-3,0,0,1024,1024,1024,1024,333.6,-89.8,73,3.884,3.863,3.88,3.842,3.863,3.882,101.39,6,GPS_Atti
36.0216517,-78.00764813,330.1518413,101.377956,0.223694,0.526358285,23600,2017/8/17 16:17,18,23.176,330.4799253,101.70604,0.50107456,1.251433767,332.5,3.9,-3.4,0,0,1024,1024,1024,1024,333.6,-89.7,73,3.884,3.863,3.88,3.842,3.863,3.882,101.39,6,GPS_Atti
36.0216518,-78.00764802,330.1518413,101.377956,0,0.565380596,23700,2017/8/17 16:17,18,23.176,330.4799253,101.70604,0.50107456,1.251433767,332.5,4.3,-3.6,0,0,1024,1024,1024,1024,333.6,-89.9,73,3.884,3.863,3.88,3.842,3.863,3.882,101.39,6,GPS_Atti
36.02165193,-78.00764802,330.1518413,101.377956,0,0.612480335,23800,2017/8/17 16:17,18,23.176,330.4799253,101.70604,0.50107456,1.251433767,332.5,4.2,-3.8,0,0,1024,1024,1024,1024,333.6,-90,73,3.884,3.863,3.88,3.842,3.863,3.882,101.39,6,GPS_Atti
36.02165188,-78.00764789,330.1518413,101.377956,0,0.604911437,23900,2017/8/17 16:17,18,23.176,330.4799253,101.70604,0.50107456,1.251433767,332.5,3.9,-4.2,0,0,1024,1024,1024,1024,333.6,-90,73,3.884,3.863,3.88,3.842,3.863,3.882,101.39,6,GPS_Atti
36.02165182,-78.00764783,330.1518413,101.377956,0,0.58613847,24000,2017/8/17 16:17,18,23.176,330.4799253,101.70604,0.50107456,1.251433767,332.5,3.8,-4.4,0,0,1024,1024,1024,1024,333.6,-90,73,3.855,3.852,3.852,3.855,3.865,3.849,101.39,6,GPS_Atti
36.02165193,-78.00764778,330.1518413,101.377956,0,0.629376661,24100,2017/8/17 16:17,18,23.176,330.4799253,101.70604,0.50107456,1.251433767,332.5,3.3,-4.3,0,0,1024,1024,1024,1024,333.6,-90,73,3.855,3.852,3.852,3.855,3.865,3.849,101.39,6,GPS_Atti
36.02165185,-78.00764777,330.1518413,101.377956,0,0.603736896,24200,2017/8/17 16:18,18,23.176,330.4799253,101.70604,0.50107456,1.251433767,332.5,3,-4.4,0,0,1024,1024,1024,1024,333.6,-90.1,73,3.855,3.852,3.852,3.855,3.865,3.849,101.39,6,GPS_Atti
36.02165178,-78.00764753,330.1518413,101.377956,0.223694,0.605639783,24300,2017/8/17 16:18,18,23.176,330.4799253,101.70604,0.50107456,1.251433767,332.6,2.7,-4.4,0,0,1024,1024,1024,1024,333.6,-90.1,73,3.855,3.852,3.852,3.855,3.865,3.849,101.39,6,GPS_Atti
36.02165174,-78.00764751,330.1518413,101.377956,0,0.5925033,24400,2017/8/17 16:18,18,23.176,330.4799253,101.70604,0.50107456,1.251433767,332.7,2.2,-4.8,0,0,1085,1024,1024,1024,333.6,-90.1,73,3.855,3.852,3.852,3.855,3.865,3.849,101.39,6,GPS_Atti
36.02165159,-78.0076474,330.1518413,101.377956,0.223694,0.561722459,24500,2017/8/17 16:18,18,23.176,330.4799253,101.70604,0.50107456,1.251433767,332.9,1.9,-4.9,0,0,1239,1024,1024,1024,333.6,-90.1,73,3.855,3.852,3.852,3.855,3.865,3.849,101.57,6,GPS_Atti
